[
  {
    "id": 1,
    "nom": "Faille des cols",
    "lat": 42.35,
    "lon": 9.0,
    "orient": "N-S",
    "type": "Quaternaire",
    "domaine": "centre",
    "source": "BRGM Corte 1/50k"
  },
  {
    "id": 2,
    "nom": "Faille San-Quilico",
    "lat": 42.28,
    "lon": 9.08,
    "orient": "N-S",
    "type": "Quaternaire",
    "domaine": "centre",
    "source": "BRGM Corte 1/50k"
  },
  {
    "id": 3,
    "nom": "Faille Casaluna",
    "lat": 42.20,
    "lon": 9.15,
    "orient": "NE-SW",
    "type": "Quaternaire",
    "domaine": "centre",
    "source": "BRGM Corte 1/50k"
  },
  {
    "id": 4,
    "nom": "Faille Taravo",
    "lat": 41.85,
    "lon": 8.95,
    "orient": "N-S",
    "type": "Quaternaire",
    "domaine": "SW",
    "source": "Ghilardi et al. 2017"
  },
  {
    "id": 5,
    "nom": "Faille Propriano",
    "lat": 41.70,
    "lon": 8.90,
    "orient": "ENE-WSW",
    "type": "active",
    "domaine": "SW",
    "source": "D'Anna PCR Cauria"
  },
  {
    "id": 6,
    "nom": "Faille Monaco-Île Rousse",
    "lat": 42.62,
    "lon": 8.95,
    "orient": "ENE-OSO",
    "type": "active",
    "domaine": "nord",
    "source": "BRGM offshore"
  },
  {
    "id": 7,
    "nom": "Faille Cap Corse (nord)",
    "lat": 42.98,
    "lon": 9.35,
    "orient": "N-S",
    "type": "active",
    "domaine": "nord",
    "source": "BRGM Cap Corse 1/50k"
  },
  {
    "id": 8,
    "nom": "Faille Castagniccia",
    "lat": 42.40,
    "lon": 9.25,
    "orient": "NE-SW",
    "type": "Quaternaire",
    "domaine": "est",
    "source": "BRGM Corte 1/50k"
  }
]
