[
  {
    "id": 0,
    "lat": 41.7478,
    "lon": 8.8713,
    "nom": "Filitosa",
    "type": "Mégalithique",
    "couleur": "#854d0e",
    "description": "Statues-menhirs ~1500 av. J.-C. · 13 statues · Granit · Site classé · Vallée du Taravo · GPS Megalithic Portal",
    "gps_source": "Megalithic Portal sid=9498",
    "gps_audit": "2026-04-13"
  },
  {
    "id": 1,
    "lat": 41.5304,
    "lon": 8.9218,
    "nom": "I Stantari / Cauria",
    "type": "Mégalithique",
    "couleur": "#854d0e",
    "description": "11 statues-menhirs armées · Alignement N-S · Plateau granitique · Sartène",
    "gps_source": "Megalithic Portal sid=9519",
    "gps_audit": "2026-04-13"
  },
  {
    "id": 2,
    "lat": 41.5266,
    "lon": 8.9212,
    "nom": "Renaghju",
    "type": "Mégalithique",
    "couleur": "#854d0e",
    "description": "~50 menhirs alignés N-S · Plateau de Cauria · Fouilles Grosjean 1964",
    "gps_source": "Triangulation MegP Fontanaccia+Stantari",
    "gps_audit": "2026-04-13"
  },
  {
    "id": 3,
    "lat": 41.5296,
    "lon": 8.9183,
    "nom": "Dolmen Fontanaccia",
    "type": "Mégalithique",
    "couleur": "#854d0e",
    "description": "Dolmen le mieux conservé de Corse · Stazzona di u Diavulu · MH 1889 · GPS J.of Antiquities"
  },
  {
    "id": 4,
    "lat": 41.5569,
    "lon": 8.8869,
    "nom": "Palaggiu / Paddaghju",
    "type": "Mégalithique",
    "couleur": "#854d0e",
    "description": "258 menhirs · Plus grand alignement de Méditerranée · Âge du Bronze · GPS Persée 41°33'36\"N 8°53'04\"E",
    "gps_source": "Wikidata + triangulation MegP",
    "gps_audit": "2026-04-13"
  },
  {
    "id": 5,
    "lat": 41.546,
    "lon": 8.876,
    "nom": "Appazu",
    "type": "Mégalithique",
    "couleur": "#854d0e",
    "description": "25 menhirs dont 2 statues-menhirs · 1km SW de Palaggiu · t4t35"
  },
  {
    "id": 6,
    "lat": 41.5527,
    "lon": 8.9347,
    "nom": "Pastini cercle de pierres",
    "type": "Mégalithique",
    "couleur": "#854d0e",
    "description": "Cercle de pierres · Néolithique · Plateau de Cauria nord · Megalithic Portal"
  },
  {
    "id": 7,
    "lat": 41.5582,
    "lon": 8.9412,
    "nom": "Cardiccia dolmen",
    "type": "Mégalithique",
    "couleur": "#854d0e",
    "description": "Dolmen · 3.7km NE de Fontanaccia · Sartène · Megalithic Portal"
  },
  {
    "id": 8,
    "lat": 41.5936,
    "lon": 8.8766,
    "nom": "Vaccil-Vecchiu menhir",
    "type": "Mégalithique",
    "couleur": "#854d0e",
    "description": "Menhir isolé · Mentionné par Mérimée 1840 · Sartenais · Megalithic Portal"
  },
  {
    "id": 9,
    "lat": 41.6014,
    "lon": 8.8795,
    "nom": "Bizzicu Rossu dolmen",
    "type": "Mégalithique",
    "couleur": "#854d0e",
    "description": "Dolmen · Sartenais · Megalithic Portal"
  },
  {
    "id": 10,
    "lat": 41.613,
    "lon": 8.8987,
    "nom": "Alo Bisuje (casteddu)",
    "type": "Mégalithique",
    "couleur": "#854d0e",
    "description": "Forteresse de pierre / castello · Sartenais · D'Anna et al. 2007 · Megalithic Portal"
  },
  {
    "id": 11,
    "lat": 41.6087,
    "lon": 8.8778,
    "nom": "Timozzolo menhirs",
    "type": "Mégalithique",
    "couleur": "#854d0e",
    "description": "Menhirs · Sartenais · Grosjean 1964 · Megalithic Portal"
  },
  {
    "id": 12,
    "lat": 41.54,
    "lon": 8.93,
    "nom": "Bocca di a Pila",
    "type": "Mégalithique",
    "couleur": "#854d0e",
    "description": "Col d'accès NE plateau Cauria · Associé aux alignements · D'Anna et al. · Mortillet 1893"
  },
  {
    "id": 13,
    "lat": 41.6468,
    "lon": 8.9478,
    "nom": "Menhirs du Rizzanese",
    "type": "Mégalithique",
    "couleur": "#854d0e",
    "description": "U Frati è a Sora (le Moine et la Nonne) · Bord T40 · Mentionné par Mérimée 1840 · Propriano-Sartène",
    "gps_source": "Wikidata Q1514781 + Wikipedia FR",
    "gps_audit": "2026-04-13"
  },
  {
    "id": 14,
    "lat": 41.708,
    "lon": 8.911,
    "nom": "Albitretu alignement",
    "type": "Mégalithique",
    "couleur": "#854d0e",
    "description": "Alignement de menhirs · Olmeto · Découvert Cesari 1985 · D'Anna PCR"
  },
  {
    "id": 15,
    "lat": 41.7172,
    "lon": 9.1287,
    "nom": "Cucuruzzu / Capula",
    "type": "Mégalithique",
    "couleur": "#854d0e",
    "description": "Village-forteresse Torréen ~2000 av. J.-C. · Alta Rocca · Lévie"
  },
  {
    "id": 16,
    "lat": 41.721,
    "lon": 9.113,
    "nom": "Ciutulaghja",
    "type": "Mégalithique",
    "couleur": "#854d0e",
    "description": "Complexe mégalithique · Coffres et dolmens · Alta Rocca · Lanfranchi 2000 \"Le secret des mégalithes\""
  },
  {
    "id": 17,
    "lat": 41.575,
    "lon": 9.245,
    "nom": "Castellu d'Araghju",
    "type": "Mégalithique",
    "couleur": "#854d0e",
    "description": "Forteresse torréenne · Granit · Fouillé par Grosjean · Vue sur Porto-Vecchio · ~5km PV"
  },
  {
    "id": 18,
    "lat": 41.622,
    "lon": 8.988,
    "nom": "Petra Pinzuta",
    "type": "Mégalithique",
    "couleur": "#854d0e",
    "description": "Statue-menhir armée · Armes égéo-mycéniennes · Sartène · Grosjean 1967"
  },
  {
    "id": 19,
    "lat": 41.717,
    "lon": 8.919,
    "nom": "Scalsa Murta",
    "type": "Mégalithique",
    "couleur": "#854d0e",
    "description": "Statue-menhir armée · Olmeto · Même équipement que Filitosa · Grosjean",
    "gps_source": "Megalithic Portal sid=6340923",
    "gps_audit": "2026-04-13"
  },
  {
    "id": 20,
    "lat": 41.58,
    "lon": 8.91,
    "nom": "Manzavinu alignement",
    "type": "Mégalithique",
    "couleur": "#854d0e",
    "description": "Alignement sur versant (exception) · Mentionné D'Anna 2007 · Sartène"
  },
  {
    "id": 21,
    "lat": 41.724,
    "lon": 9.168,
    "nom": "Pacciunituli",
    "type": "Mégalithique",
    "couleur": "#854d0e",
    "description": "Alignement statues-menhirs · San-Gavino-di-Carbini · t4t35"
  },
  {
    "id": 22,
    "lat": 42.1465,
    "lon": 8.6269,
    "nom": "U Scumunicatu (Cargèse)",
    "type": "Mégalithique",
    "couleur": "#854d0e",
    "description": "Statue-menhir 2.67m · Découverte 1993 · Paomia · GPS vérifié 42.146N 8.627E"
  },
  {
    "id": 23,
    "lat": 42.116,
    "lon": 8.693,
    "nom": "Statues-menhirs de Sagone",
    "type": "Mégalithique",
    "couleur": "#854d0e",
    "description": "Fragments réutilisés dans cathédrale de Sagone · Vico · t4t35"
  },
  {
    "id": 24,
    "lat": 42.1,
    "lon": 8.72,
    "nom": "Stantara d'Apricciani",
    "type": "Mégalithique",
    "couleur": "#854d0e",
    "description": "Statue-menhir · Entrée du village de Vico · Mentionnée par Mérimée 1840 · Mortillet 1893"
  },
  {
    "id": 25,
    "lat": 41.7313,
    "lon": 8.8325,
    "nom": "U Paladinu",
    "type": "Mégalithique",
    "couleur": "#854d0e",
    "description": "Menhir isolé · Serra-di-Ferro · Vallée du Taravo · t4t35",
    "gps_source": "Megalithic Portal sid=9528 + OSM",
    "gps_audit": "2026-04-13"
  },
  {
    "id": 26,
    "lat": 41.759,
    "lon": 8.877,
    "nom": "Statue-menhir Santa Naria",
    "type": "Mégalithique",
    "couleur": "#854d0e",
    "description": "Statue-menhir · Olmeto · t4t35"
  },
  {
    "id": 27,
    "lat": 42.0692,
    "lon": 8.9867,
    "nom": "Statue-menhir de Tavera",
    "type": "Mégalithique",
    "couleur": "#854d0e",
    "description": "Statue-menhir · Tavera · Haute vallée Gravona · t4t35",
    "gps_source": "Wikidata Q22996372",
    "gps_audit": "2026-04-13"
  },
  {
    "id": 28,
    "lat": 41.8169,
    "lon": 8.9071,
    "nom": "U Cantonu",
    "type": "Mégalithique",
    "couleur": "#854d0e",
    "description": "Statues-menhirs · Pila-Canale · Vallée du Taravo · t4t35",
    "gps_source": "Megalithic Portal sid=9525 + Petit Futé",
    "gps_audit": "2026-04-13"
  },
  {
    "id": 29,
    "lat": 41.9309,
    "lon": 9.1332,
    "nom": "Statue-menhir de Castaldu",
    "type": "Mégalithique",
    "couleur": "#854d0e",
    "description": "Statue-menhir · Ciamannacce · Haute vallée · t4t35",
    "gps_source": "Megalithic Portal sid=20414 + Wikidata Q2334165",
    "gps_audit": "2026-04-13"
  },
  {
    "id": 30,
    "lat": 42.01,
    "lon": 9.2,
    "nom": "Poggio-di-Nazza",
    "type": "Mégalithique",
    "couleur": "#854d0e",
    "description": "Site mégalithique · Haute-Corse intérieure · Fiumorbu"
  },
  {
    "id": 31,
    "lat": 42.392,
    "lon": 9.225,
    "nom": "Caporalino",
    "type": "Mégalithique",
    "couleur": "#854d0e",
    "description": "4 statues-menhirs · Possible alignement détruit · Capo Castinco"
  },
  {
    "id": 32,
    "lat": 42.6704,
    "lon": 9.2585,
    "nom": "Monte-Revincu",
    "type": "Mégalithique",
    "couleur": "#854d0e",
    "description": "Dolmen Casa di l'Orcu + Casa di l'Orca · MH 1889+2018 · Santo-Pietro-di-Tenda · Agriates · Village néolithique moyen",
    "gps_source": "Wikipedia + HAL hal-00678708",
    "gps_audit": "2026-04-13"
  },
  {
    "id": 33,
    "lat": 42.66,
    "lon": 9.2,
    "nom": "Mamucci menhirs",
    "type": "Mégalithique",
    "couleur": "#854d0e",
    "description": "Menhirs · Ouest Monte Revincu · Santucci et al. 2004 archéoastronomie · Nebbiu"
  },
  {
    "id": 34,
    "lat": 42.666,
    "lon": 9.261,
    "nom": "Casa di l'Orca dolmen",
    "type": "Mégalithique",
    "couleur": "#854d0e",
    "description": "Dolmen matriarcal · 500m de Casa di l'Orcu · \"Maison de l'ogresse\" · GPS Megalithic Portal 42.670N 9.259E"
  },
  {
    "id": 35,
    "lat": 42.68817,
    "lon": 9.1956,
    "nom": "Monte Ghjenuva",
    "type": "Remarquable",
    "couleur": "#8b5cf6",
    "description": "Montagne sacrée · Visible depuis Cima di Suarella · Axe légende du Lurcu · Santucci et al. 2004",
    "gps_source": "PeakVisor",
    "gps_audit": "2026-04-14"
  },
  {
    "id": 36,
    "lat": 42.88,
    "lon": 9.378,
    "nom": "Pinzu a Vergine",
    "type": "Mégalithique",
    "couleur": "#854d0e",
    "description": "5 menhirs · Bocca de Pinzu a Vergine · Crête Cap Corse · Luri-Barrettali · 630m alt."
  },
  {
    "id": 37,
    "lat": 42.582,
    "lon": 9.289,
    "nom": "Piève statues-menhirs",
    "type": "Mégalithique",
    "couleur": "#854d0e",
    "description": "Statues-menhirs exposées face à l'église · Découvertes alentours du village",
    "gps_source": "Megalithic Portal sid=6340890 + Wikipedia FR",
    "gps_audit": "2026-04-13"
  },
  {
    "id": 38,
    "lat": 41.387,
    "lon": 9.159,
    "nom": "Bonifacio remparts",
    "type": "Site remarquable",
    "couleur": "#5c7a3a",
    "description": "Calcaire miocène (isolant/diamagnétique) + grains quartz · Falaises 70m · Contraste vs granit · Référence EM basse"
  },
  {
    "id": 39,
    "lat": 42.56838,
    "lon": 8.76071,
    "nom": "Citadelle de Calvi",
    "type": "Site remarquable",
    "couleur": "#5c7a3a",
    "description": "Granit leucocrate porphyrique riche en quartz · Filon basique · XVe s. génois · Potentiel piézo fort",
    "gps_source": "Wikidata Q21584222",
    "gps_audit": "2026-04-14"
  },
  {
    "id": 40,
    "lat": 42.305,
    "lon": 9.149,
    "nom": "Citadelle de Corte / Casteddu di Corti",
    "type": "Site remarquable",
    "couleur": "#5c7a3a",
    "description": "Sur ophiolites (roches vertes, gabbros) · Susceptibilité magnétique forte · Citadelle Vauban XVIIIe"
  },
  {
    "id": 41,
    "lat": 42.36072,
    "lon": 8.56127,
    "nom": "Réserve de Scandola",
    "type": "Remarquable",
    "couleur": "#8b5cf6",
    "description": "Granit alcalin rouge Permien + rhyolites · Caldeira · UNESCO · Formations annulaires · Piézoélectrique",
    "gps_source": "INPN MNHN FR3600024 (officiel)",
    "gps_audit": "2026-04-14"
  },
  {
    "id": 42,
    "lat": 42.32944,
    "lon": 9.02222,
    "nom": "Barrage Calacuccia",
    "type": "Hydraulique",
    "couleur": "#1a4b8c",
    "description": "Barrage voûte · Golo · 107m · 26 MW · Niolu",
    "gps_source": "CFBR barrages-cfbr.eu/Calacuccia",
    "gps_audit": "2026-04-14"
  },
  {
    "id": 43,
    "lat": 41.964,
    "lon": 8.965,
    "nom": "Barrage Tolla",
    "type": "Hydraulique",
    "couleur": "#1a4b8c",
    "description": "Barrage poids · Prunelli · 87m · GPS CFBR 41.9635 8.9646"
  },
  {
    "id": 44,
    "lat": 41.66806,
    "lon": 9.20778,
    "nom": "Barrage Ospedale",
    "type": "Hydraulique",
    "couleur": "#1a4b8c",
    "description": "Barrage voûte · Cavu · Alta Rocca",
    "gps_source": "CFBR barrages-cfbr.eu/Ospedale",
    "gps_audit": "2026-04-14"
  },
  {
    "id": 45,
    "lat": 41.73472,
    "lon": 9.11444,
    "nom": "Barrage du Rizzanese",
    "type": "Hydraulique",
    "couleur": "#1a4b8c",
    "description": "Retenue · Gravona · Bocognano · Renommé depuis \"Vignola\" (aucun barrage ce nom CFBR)",
    "gps_source": "CFBR barrages-cfbr.eu (Rizzanese)",
    "gps_audit": "2026-04-14"
  },
  {
    "id": 46,
    "lat": 42.29833,
    "lon": 9.485,
    "nom": "Barrage Alesani",
    "type": "Hydraulique",
    "couleur": "#1a4b8c",
    "description": "Retenue · Alesani · Castagniccia",
    "gps_source": "CFBR barrages-cfbr.eu/Alesani",
    "gps_audit": "2026-04-14"
  },
  {
    "id": 47,
    "lat": 42.62806,
    "lon": 9.32278,
    "nom": "Barrage Padula",
    "type": "Hydraulique",
    "couleur": "#1a4b8c",
    "description": "Retenue · Haute-Corse · Fiumorbu",
    "gps_source": "Wikipedia EN Lac de Padula (Nebbio)",
    "gps_audit": "2026-04-14"
  },
  {
    "id": 48,
    "lat": 41.57,
    "lon": 8.895,
    "nom": "Tivulaggio alignement",
    "type": "Mégalithique",
    "couleur": "#854d0e",
    "description": "Alignement de menhirs · Sartène · Granit biotite · Plateau de Cauria élargi"
  },
  {
    "id": 49,
    "lat": 41.692,
    "lon": 8.915,
    "nom": "Tizzarella menhirs",
    "type": "Mégalithique",
    "couleur": "#854d0e",
    "description": "Menhirs isolés · Vallée Rizzanese · Granit · Sartène"
  },
  {
    "id": 50,
    "lat": 41.655,
    "lon": 8.965,
    "nom": "Casteddu di Caleca",
    "type": "Mégalithique",
    "couleur": "#854d0e",
    "description": "Castrum protohistorique · Pierres sèches · Sartène · D'Anna PCR"
  },
  {
    "id": 51,
    "lat": 41.62,
    "lon": 9.01,
    "nom": "Punta Campana",
    "type": "Mégalithique",
    "couleur": "#854d0e",
    "description": "Menhir isolé 3m · Granit biotite · Proche Porto-Vecchio · Leandri 2020"
  },
  {
    "id": 52,
    "lat": 41.71,
    "lon": 9.13,
    "nom": "Sant Andria menhirs",
    "type": "Mégalithique",
    "couleur": "#854d0e",
    "description": "Menhirs · Carbini · Granit biotite · Zone mégalithique dense · Leandri 2023"
  },
  {
    "id": 53,
    "lat": 41.75,
    "lon": 9.085,
    "nom": "Torre de Tusiu",
    "type": "Mégalithique",
    "couleur": "#854d0e",
    "description": "Monument torréen · Age Bronze · Granit · Sainte-Lucie-de-Tallano · D'Anna PCR · Orthographe correcte Lanfranchi 1998"
  },
  {
    "id": 54,
    "lat": 42.669,
    "lon": 9.2649,
    "nom": "Dolmen de la Serra",
    "type": "Mégalithique",
    "couleur": "#854d0e",
    "description": "Dolmen Casa di l'Urca · Complexe Monte Revincu · Santucci et al. 2004",
    "gps_source": "Megalithic Portal sid=6340897 (Casa di l'Urca)",
    "gps_audit": "2026-04-13"
  },
  {
    "id": 55,
    "lat": 42.777,
    "lon": 9.345,
    "nom": "Menhir de Nonza",
    "type": "Mégalithique",
    "couleur": "#854d0e",
    "description": "Menhir isolé · Serpentinite · Cap Corse · GPS approximatif · D'Anna 2019"
  },
  {
    "id": 56,
    "lat": 42.725,
    "lon": 9.16,
    "nom": "Casa di u Banditu",
    "type": "Mégalithique",
    "couleur": "#854d0e",
    "description": "Coffre dolménique · Monte Revincu élargi · Schiste · Leandri 2020"
  },
  {
    "id": 57,
    "lat": 42.973,
    "lon": 9.415,
    "nom": "Barcaggio menhirs",
    "type": "Mégalithique",
    "couleur": "#854d0e",
    "description": "Menhirs · Extrême nord Cap Corse · Schiste · D'Anna 2019 Haute-Corse"
  },
  {
    "id": 58,
    "lat": 42.507,
    "lon": 8.855,
    "nom": "Menhir de Calenzana",
    "type": "Mégalithique",
    "couleur": "#854d0e",
    "description": "Menhir isolé 2.5m · Granit alcalin piézo · Calenzana · Leandri 2020"
  },
  {
    "id": 59,
    "lat": 42.56,
    "lon": 8.87,
    "nom": "Casteddu di Lozari",
    "type": "Mégalithique",
    "couleur": "#854d0e",
    "description": "Castrum préhistorique · Granit · Belgodère/Balagne · D'Anna 2019"
  },
  {
    "id": 60,
    "lat": 42.608,
    "lon": 8.869,
    "nom": "Alignement de Montegrosso",
    "type": "Mégalithique",
    "couleur": "#854d0e",
    "description": "Alignement 5 menhirs · Granit · Balagne intérieure · Leandri 2023"
  },
  {
    "id": 61,
    "lat": 42.31,
    "lon": 9.249,
    "nom": "Menhir de Sermano",
    "type": "Mégalithique",
    "couleur": "#854d0e",
    "description": "Menhir isolé · Centre géographique Corse · Granit · Rogna"
  },
  {
    "id": 62,
    "lat": 42.235,
    "lon": 9.152,
    "nom": "Poggio-di-Venaco mégalithes",
    "type": "Mégalithique",
    "couleur": "#854d0e",
    "description": "Ensemble mégalithique dispersé · Granit · Haute vallée Tavignano · Leandri 2020"
  },
  {
    "id": 63,
    "lat": 42.098,
    "lon": 9.499,
    "nom": "Terrina (Aléria)",
    "type": "Mégalithique",
    "couleur": "#854d0e",
    "description": "Site néolithique majeur · Céramique + mégalithes · Plaine orientale · Fouilles extensives"
  },
  {
    "id": 64,
    "lat": 41.5522,
    "lon": 9.2306,
    "nom": "Tappa torre",
    "type": "Mégalithique",
    "couleur": "#854d0e",
    "description": "Monument torréen · Bronze · Granit/schiste · Fiumorbu · Grosjean",
    "gps_source": "Wikidata Q2444596 + OT Porto-Vecchio",
    "gps_audit": "2026-04-13"
  },
  {
    "id": 65,
    "lat": 41.95,
    "lon": 9.31,
    "nom": "Castidetta menhirs",
    "type": "Mégalithique",
    "couleur": "#854d0e",
    "description": "Groupe menhirs · Cozzano/Zicavo · Granit · Montagne intérieure · Leandri 2020"
  },
  {
    "id": 66,
    "lat": 42.16,
    "lon": 8.72,
    "nom": "Menhir de Casaglione",
    "type": "Mégalithique",
    "couleur": "#854d0e",
    "description": "Menhir isolé 2m · Granodiorite · Sagone intérieur · D'Anna PCR"
  },
  {
    "id": 67,
    "lat": 42.03,
    "lon": 8.81,
    "nom": "Casteddu de Bastelica",
    "type": "Mégalithique",
    "couleur": "#854d0e",
    "description": "Castrum · Granit · Montagne d'Ajaccio · Protohistorique"
  },
  {
    "id": 68,
    "lat": 42.66,
    "lon": 9.15,
    "nom": "Menhirs d'Agriate",
    "type": "Mégalithique",
    "couleur": "#854d0e",
    "description": "Menhirs dispersés sous maquis · Schiste · D'Anna 2019 · Agriate · GPS très approximatif"
  },
  {
    "id": 69,
    "lat": 42.64,
    "lon": 9.1,
    "nom": "Monte Genova mégalithes",
    "type": "Mégalithique",
    "couleur": "#854d0e",
    "description": "Ensemble mégalithique · Agriate · Schiste · Prospection D'Anna 2019 · Sous maquis"
  },
  {
    "id": 70,
    "lat": 41.498,
    "lon": 9.108,
    "nom": "Alignement de Figari",
    "type": "Mégalithique",
    "couleur": "#854d0e",
    "description": "Menhirs alignés · Granit · Zone aéroport Figari · Leandri 2020"
  },
  {
    "id": 71,
    "lat": 41.5626,
    "lon": 9.2447,
    "nom": "Ceccia torre",
    "type": "Mégalithique",
    "couleur": "#854d0e",
    "description": "Torre du Bronze · Granit · Porto-Vecchio nord · Leandri/Grosjean",
    "gps_source": "Wikidata Q2444590 + OSM",
    "gps_audit": "2026-04-13"
  },
  {
    "id": 72,
    "lat": 41.6212,
    "lon": 8.8424,
    "nom": "Capu di Logu",
    "type": "Mégalithique",
    "couleur": "#854d0e",
    "description": "Menhir/statue-menhir · Calcaire/granit · Bonifacio · Extrême sud",
    "gps_source": "Megalithic Portal sid=9518 (GPS niveau 5)",
    "gps_audit": "2026-04-13"
  },
  {
    "id": 73,
    "lat": 41.79982,
    "lon": 9.21484,
    "nom": "Aiguilles de Bavella",
    "type": "Remarquable",
    "couleur": "#8b5cf6",
    "description": "Pics granitiques 1218-1855m · \"Menhirs naturels\" · Axe Cauria-Cucuruzzu-Bavella-Aléria (Leplat 2016) · Triangle 3-4-5 Pythagore",
    "gps_source": "Wikipedia EN Aiguilles de Bavella",
    "gps_audit": "2026-04-14"
  },
  {
    "id": 74,
    "lat": 42.105,
    "lon": 9.513,
    "nom": "Aléria antique",
    "type": "Remarquable",
    "couleur": "#8b5cf6",
    "description": "Cité néolithique puis romaine · Sommet du triangle Cauria-Bavella · 80.9km alignement 36.87° (Leplat) · Plaine orientale"
  },
  {
    "id": 75,
    "lat": 41.56296,
    "lon": 9.06503,
    "nom": "Uomo di Cagna",
    "type": "Remarquable",
    "couleur": "#8b5cf6",
    "description": "Rocher anthropomorphe 1217m · Granit · \"Sentinelle de la montagne\" face au Lion de Roccapina · Vallée Ortolu",
    "gps_source": "PeakVisor + Wikipedia FR + IGN",
    "gps_audit": "2026-04-14"
  },
  {
    "id": 76,
    "lat": 42.2525,
    "lon": 8.65722,
    "nom": "Calanques de Piana",
    "type": "Remarquable",
    "couleur": "#8b5cf6",
    "description": "Granit rose sculpté par érosion · UNESCO · Taffoni · Formation géologique unique · 400m altitude",
    "gps_source": "Wikipedia EN site UNESCO",
    "gps_audit": "2026-04-14"
  },
  {
    "id": 77,
    "lat": 42.13722,
    "lon": 9.09861,
    "nom": "Monte d'Oro",
    "type": "Remarquable",
    "couleur": "#8b5cf6",
    "description": "Sommet 2389m · Ligne de partage des eaux · Granit paléozoïque · Point géodésique majeur",
    "gps_source": "Wikipedia EN + OSM node 6167018045 (sommet 2389m)",
    "gps_audit": "2026-04-14"
  },
  {
    "id": 78,
    "lat": 41.38845,
    "lon": 9.143,
    "nom": "Grotte de Bonifacio / Fazzio",
    "type": "Remarquable",
    "couleur": "#8b5cf6",
    "description": "Grotte marine · Calcaire miocène · Occupation préhistorique -8500 av. J.-C. · Site Araguina-Sennola",
    "gps_source": "Megalithic Portal sid=44653",
    "gps_audit": "2026-04-14"
  },
  {
    "id": 79,
    "lat": 42.37972,
    "lon": 8.94583,
    "nom": "Monte Cinto",
    "type": "Remarquable",
    "couleur": "#8b5cf6",
    "description": "Point culminant Corse 2706m · Socle granitique hercynien · Référence géomagnétique altitude",
    "gps_source": "Wikipedia EN + corseweb (point culminant Corse 2706m)",
    "gps_audit": "2026-04-14"
  },
  {
    "id": 80,
    "lat": 42.117,
    "lon": 9.114,
    "nom": "Forêt de Vizzavona",
    "type": "Remarquable",
    "couleur": "#8b5cf6",
    "description": "Pins Laricio 500 ans · Col 1163m · Granit hercynien · Ligne partage eaux"
  },
  {
    "id": 81,
    "lat": 42.25368,
    "lon": 8.76676,
    "nom": "Gorges du Spelunca",
    "type": "Remarquable",
    "couleur": "#8b5cf6",
    "description": "Granit orangé Permien · Gorges profondes · Pont génois · Gradient magnétique local",
    "gps_source": "GeoNames 12037804 + Wikidata",
    "gps_audit": "2026-04-14"
  },
  {
    "id": 82,
    "lat": 41.59,
    "lon": 9.28,
    "nom": "Golfe de Porto-Vecchio",
    "type": "Remarquable",
    "couleur": "#8b5cf6",
    "description": "Granit rose · Quartz pur · Piézo élevé · Site UNESCO · Contrastes magnétiques"
  },
  {
    "id": 83,
    "lat": 42.2525,
    "lon": 8.65722,
    "nom": "Porto / Calanche",
    "type": "Remarquable",
    "couleur": "#8b5cf6",
    "description": "Granit rouge Permien érodé · UNESCO · Taffoni · Piézoélectricité forte",
    "gps_source": "Wikipedia EN site UNESCO (cœur calanques)",
    "gps_audit": "2026-04-14"
  },
  {
    "id": 84,
    "lat": 41.96833,
    "lon": 8.97722,
    "nom": "Lac de Tolla",
    "type": "Remarquable",
    "couleur": "#8b5cf6",
    "description": "Lac artificiel gorges granit · Interface eau/roche piézo · Réflexions ELF · Alt 480m",
    "gps_source": "Wikipedia EN Lac de Tolla",
    "gps_audit": "2026-04-14"
  },
  {
    "id": 85,
    "lat": 42.05944,
    "lon": 9.13389,
    "nom": "Monte Renoso",
    "type": "Remarquable",
    "couleur": "#8b5cf6",
    "description": "Massif granit 2352m · Lacs glaciaires · Granit à deux micas · Sources Prunelli",
    "gps_source": "Wikipedia EN + OSM node 763323197",
    "gps_audit": "2026-04-14"
  },
  {
    "id": 86,
    "lat": 42.78855,
    "lon": 9.41853,
    "nom": "Monte Stello",
    "type": "Remarquable",
    "couleur": "#8b5cf6",
    "description": "Point culminant Cap Corse 1307m · Ophiolites + schistes · Anomalie magnétique ophiolitique",
    "gps_source": "OSM node 1321573465 (peak)",
    "gps_audit": "2026-04-14"
  },
  {
    "id": 87,
    "lat": 42.6455,
    "lon": 8.93283,
    "nom": "Ile Rousse / Pietra",
    "type": "Remarquable",
    "couleur": "#8b5cf6",
    "description": "Rocher trachytique volcanique · Composition unique Corse · Susceptibilité magnétique distincte",
    "gps_source": "Phares et Balises (phare officiel)",
    "gps_audit": "2026-04-14"
  },
  {
    "id": 88,
    "lat": 42.982,
    "lon": 9.4,
    "nom": "Cap Corse extrême nord",
    "type": "Remarquable",
    "couleur": "#8b5cf6",
    "description": "Ophiolites altérées · Serpentinite verte · Susceptibilité magnétique variable"
  },
  {
    "id": 89,
    "lat": 41.7,
    "lon": 9.21,
    "nom": "Massif de l'Ospedale",
    "type": "Remarquable",
    "couleur": "#8b5cf6",
    "description": "Granit à gros cristaux feldspaths · Forêt altitude · Vue Porto-Vecchio"
  },
  {
    "id": 90,
    "lat": 42.09618,
    "lon": 9.29137,
    "nom": "Gorges de l'Inzecca",
    "type": "Remarquable",
    "couleur": "#8b5cf6",
    "description": "Ophiolites · Laves en coussins · Susceptibilité magnétique maximale Corse",
    "gps_source": "GeoNames 12045461",
    "gps_audit": "2026-04-14"
  },
  {
    "id": 91,
    "lat": 41.57,
    "lon": 9.29,
    "nom": "Tour génoise Chiappa",
    "type": "Site remarquable",
    "couleur": "#5c7a3a",
    "description": "Tour génoise XVIe · Granit rose · Réseau surveillance côtière · Vue mer"
  },
  {
    "id": 92,
    "lat": 43.00917,
    "lon": 9.4225,
    "nom": "Tour d'Agnello (Cap Corse)",
    "type": "Site remarquable",
    "couleur": "#5c7a3a",
    "description": "Tour génoise · Schiste · Réseau surveillance Cap Corse · Sommet 536m",
    "gps_source": "Wikidata Q7826823",
    "gps_audit": "2026-04-14"
  },
  {
    "id": 93,
    "lat": 41.89528,
    "lon": 8.60833,
    "nom": "Tour de la Parata (Ajaccio)",
    "type": "Site remarquable",
    "couleur": "#5c7a3a",
    "description": "Tour génoise 1608 · Granit · Iles Sanguinaires · Golfe Ajaccio",
    "gps_source": "Wikipedia EN Torra di a Parata",
    "gps_audit": "2026-04-14"
  },
  {
    "id": 94,
    "lat": 42.595,
    "lon": 9.395,
    "nom": "Défilé de Lancône",
    "type": "Site remarquable",
    "couleur": "#5c7a3a",
    "description": "Gorges calcaires · Calcaire noir Jurassique · Anomalie magnétique négative"
  },
  {
    "id": 95,
    "lat": 41.86,
    "lon": 9,
    "nom": "Castello della Rocca",
    "type": "Site remarquable",
    "couleur": "#5c7a3a",
    "description": "Ruines château comtes della Rocca · Granit biotite · Alta Rocca · XIVe s."
  },
  {
    "id": 96,
    "lat": 42.69366,
    "lon": 9.45106,
    "nom": "Bastia / Citadelle génoise",
    "type": "Site remarquable",
    "couleur": "#5c7a3a",
    "description": "Citadelle génoise 1378 · Schiste lustre · Terra Nuova · Vue golfe",
    "gps_source": "Wikidata Q22949758 + OSM way 361862194",
    "gps_audit": "2026-04-14"
  },
  {
    "id": 97,
    "lat": 41.536,
    "lon": 8.918,
    "nom": "Sposata (menhir penché)",
    "type": "Mégalithique",
    "couleur": "#854d0e",
    "description": "Menhir penché unique en Corse · Plateau Cauria · Granit biotite piézo · Même zone que Fontanaccia et Renaghju"
  },
  {
    "id": 98,
    "lat": 42.46,
    "lon": 8.985,
    "nom": "Forêt de Tartagine",
    "type": "Remarquable",
    "couleur": "#8b5cf6",
    "description": "Pins Laricio pluricentenaires · Granit Balagne · Réserve biosphère · Zone humide altitude · Piézo modéré"
  },
  {
    "id": 99,
    "lat": 42.47,
    "lon": 8.86,
    "nom": "Cirque de Bonifato",
    "type": "Remarquable",
    "couleur": "#8b5cf6",
    "description": "Cirque glaciaire granitique · Calenzana · Granit alcalin piézo · GR20 départ · Paroi 1000m"
  },
  {
    "id": 100,
    "lat": 42.25556,
    "lon": 8.94028,
    "nom": "Lac de Nino",
    "type": "Remarquable",
    "couleur": "#8b5cf6",
    "description": "Lac glaciaire 1743m · Pozzi sacrés · Granit hercynien · Source du Tavignano · Piézo fort altitude",
    "gps_source": "Wikipedia EN + OSM way 28890021",
    "gps_audit": "2026-04-14"
  },
  {
    "id": 101,
    "lat": 42.20512,
    "lon": 8.94635,
    "nom": "Lac de Creno",
    "type": "Remarquable",
    "couleur": "#8b5cf6",
    "description": "Lac altitude 1310m · Pins Laricio · Granit · Seul lac naturel de montagne facilement accessible",
    "gps_source": "Wikipedia EN + OSM way 28890022",
    "gps_audit": "2026-04-14"
  },
  {
    "id": 102,
    "lat": 42.68,
    "lon": 9.1,
    "nom": "Désert des Agriate",
    "type": "Remarquable",
    "couleur": "#8b5cf6",
    "description": "Maquis côtier vierge · Schiste et grès · Plages sauvages · Courants telluriques côtiers"
  },
  {
    "id": 103,
    "lat": 42.40352,
    "lon": 8.92231,
    "nom": "Massif du Haut-Asco",
    "type": "Remarquable",
    "couleur": "#8b5cf6",
    "description": "Granit massif 2706m (Monte Cinto versant) · Lacs glaciaires · Forêt de pins noirs · Piézo maximal",
    "gps_source": "GPS refuge Ascu Stagnu + livre-gr20-corse",
    "gps_audit": "2026-04-14"
  },
  {
    "id": 104,
    "lat": 42.24028,
    "lon": 8.58667,
    "nom": "Capu Rossu",
    "type": "Remarquable",
    "couleur": "#8b5cf6",
    "description": "Promontoire granit rouge Permien 331m · Tour génoise Turghiu · Piézoélectricité forte · Golfe de Porto",
    "gps_source": "Wikipedia FR DMS précis",
    "gps_audit": "2026-04-14"
  },
  {
    "id": 105,
    "lat": 42.29,
    "lon": 9.14,
    "nom": "Gorges du Tavignano",
    "type": "Remarquable",
    "couleur": "#8b5cf6",
    "description": "Gorges granit profondes · Traversée 3j · Source sacrée · Courants telluriques intenses · Corte"
  },
  {
    "id": 106,
    "lat": 41.68062,
    "lon": 9.216,
    "nom": "Piscia di Gallo",
    "type": "Remarquable",
    "couleur": "#8b5cf6",
    "description": "Cascade 90m · Granit biotite Alta Rocca · Eau vive + roche piézo = anomalie possible · Ospedale",
    "gps_source": "Waypoint GPS action-route-chemin.fr",
    "gps_audit": "2026-04-14"
  },
  {
    "id": 107,
    "lat": 42.39625,
    "lon": 9.32681,
    "nom": "Monte San Petrone",
    "type": "Remarquable",
    "couleur": "#8b5cf6",
    "description": "Sommet Castagniccia 1767m · Transition schiste-ophiolite · Vue 360° · Susceptibilité magnétique élevée",
    "gps_source": "Wikipedia EN + OSM node 26863958",
    "gps_audit": "2026-04-14"
  },
  {
    "id": 108,
    "lat": 42.28201,
    "lon": 8.93299,
    "nom": "Forêt de Valdu Niellu",
    "type": "Remarquable",
    "couleur": "#8b5cf6",
    "description": "Plus grande forêt de Corse · Pins Laricio · Granit Niolu · Zone humide altitude · Renoso-Cinto",
    "gps_source": "GeoNames 2971070 + Mapcarta",
    "gps_audit": "2026-04-14"
  },
  {
    "id": 109,
    "lat": 42.0643,
    "lon": 9.05076,
    "nom": "Cascades du Voile de la mariée",
    "type": "Remarquable",
    "couleur": "#8b5cf6",
    "description": "Cascade 150m · Granit hercynien · Bocognano · Anomalie piézo potentielle · Haute Gravona",
    "gps_source": "IGNrando parcours 158776",
    "gps_audit": "2026-04-14"
  },
  {
    "id": 110,
    "lat": 41.88,
    "lon": 9.07,
    "nom": "Plateau du Coscione",
    "type": "Remarquable",
    "couleur": "#8b5cf6",
    "description": "Plateau granit 1400m · Pozzines sacrées · Bergeries ancestrales · Courants telluriques diffus"
  },
  {
    "id": 111,
    "lat": 43.17654,
    "lon": 9.60008,
    "nom": "Anneaux du Cap Corse",
    "type": "Remarquable",
    "couleur": "#8b5cf6",
    "description": "Formations coralligènes sous-marines circulaires · ~120m profondeur · Site marin · CNRS / Expédition Gombessa 6 / Andromède Océanologie",
    "gps_source": "Coordonnées validées CNRS + Gombessa 6",
    "gps_audit": "2026-04-14"
  }
]